,City,Lat,Lng,Maxtemp,Humidity,Cloudiness,Wind Speed,Country,Date
0,Airai,-8.9266,125.4092,60.26,90,91,3.13,TL,1651329814
1,Kirakira,-10.4544,161.9205,79.93,81,100,0.58,SB,1651329897
2,Port Alfred,-33.5906,26.891,67.17,66,2,7.0,ZA,1651329657
3,Sarakhs,36.5449,61.1577,96.94,19,75,4.61,IR,1651329897
4,Vaini,-21.2,-175.2,77.16,94,100,10.36,TO,1651329801
5,Kapaa,22.0752,-159.319,73.11,84,40,19.57,US,1651329898
6,Seoul,37.5683,126.9778,51.37,78,75,5.75,KR,1651329613
7,Mataura,-46.1927,168.8643,60.48,90,79,4.21,NZ,1651329787
8,Blyth,55.1271,-1.5086,61.59,43,0,10.36,GB,1651329899
9,Kysyl-Syr,63.8986,122.7617,34.92,79,100,11.97,RU,1651329899
10,Atambua,-9.1061,124.8925,73.62,90,74,4.34,ID,1651329900
11,Oddur,4.1213,43.8894,83.68,57,85,5.5,SO,1651329900
12,Bengkulu,-3.8004,102.2655,78.08,89,100,4.54,ID,1651329901
13,Port Hedland,-20.3167,118.5667,77.05,57,100,6.91,AU,1651329901
14,Busselton,-33.65,115.3333,56.7,82,0,5.82,AU,1651329902
15,Khatanga,71.9667,102.5,10.44,97,46,5.46,RU,1651329902
16,Mar del Plata,-38.0023,-57.5575,53.87,51,0,8.05,AR,1651329643
17,Saint-Joseph,-21.3667,55.6167,79.18,81,48,8.39,RE,1651329903
18,Vanavara,60.34,102.2797,37.26,95,100,3.71,RU,1651329903
19,Mayumba,-3.432,10.6554,81.41,75,100,6.2,GA,1651329904
20,San Juan,-31.5375,-68.5364,61.86,30,0,3.96,AR,1651329904
21,Leh,34.1667,77.5833,45.81,59,82,3.56,IN,1651329905
22,Rikitea,-23.1203,-134.9692,75.7,76,48,13.18,PF,1651329905
23,Antofagasta,-23.65,-70.4,72.21,58,32,8.55,CL,1651329607
24,Barrow,71.2906,-156.7887,10.42,92,75,8.05,US,1651329906
25,Bilma,18.6853,12.9164,106.25,6,80,4.05,NE,1651329907
26,Kiunga,-6.1219,141.2906,76.93,80,100,0.78,PG,1651329907
27,Ushuaia,-54.8,-68.3,38.82,75,0,5.75,AR,1651329908
28,Hobart,-42.8794,147.3294,57.25,84,40,12.66,AU,1651329897
29,São Filipe,14.8961,-24.4956,75.24,67,94,11.65,CV,1651329822
30,Maceió,-9.6658,-35.7353,83.64,61,75,13.8,BR,1651329857
31,Dunedin,-45.8742,170.5036,55.8,73,24,5.01,NZ,1651329909
32,Butaritari,3.0707,172.7902,80.62,82,90,12.03,KI,1651329909
33,Palmer,42.1584,-72.3287,56.44,30,20,11.5,US,1651329910
34,Hilo,19.7297,-155.09,73.27,94,75,4.61,US,1651329816
35,Ribeira Grande,38.5167,-28.7,66.6,77,75,12.66,PT,1651329627
36,Te Anau,-45.4167,167.7167,56.57,77,99,9.98,NZ,1651329911
37,Bredasdorp,-34.5322,20.0403,65.86,52,16,11.72,ZA,1651329829
38,Terrace Bay,48.7834,-87.1,40.71,69,100,8.48,CA,1651329911
39,Avarua,-21.2078,-159.775,77.05,88,40,3.44,CK,1651329863
40,Kruisfontein,-34.0033,24.7314,65.88,66,0,16.28,ZA,1651329912
41,Agadir,30.4202,-9.5982,84.65,35,1,13.62,MA,1651329912
42,Puurmani,58.5738,26.2878,50.29,34,98,6.24,EE,1651329913
43,Kudahuvadhoo,2.6708,72.8944,85.98,68,100,15.52,MV,1651329914
44,Yanam,16.7333,82.2167,83.77,81,28,10.83,IN,1651329914
45,Hibbing,47.4272,-92.9377,44.02,50,100,13.8,US,1651329915
46,Lebu,-37.6167,-73.65,52.7,60,0,12.55,CL,1651329829
47,Thompson,55.7435,-97.8558,33.96,75,75,8.05,CA,1651329915
48,Canguaretama,-6.38,-35.1289,87.06,57,80,13.49,BR,1651329916
49,Hīt,33.6416,42.8251,90.91,19,0,16.49,IQ,1651329916
50,Sobolevo,54.4299,31.8996,47.71,49,95,6.38,RU,1651329917
51,Punta Arenas,-53.15,-70.9167,37.42,93,40,2.3,CL,1651329777
52,Wilmington,34.2257,-77.9447,75.0,67,75,9.22,US,1651329369
53,Alta Floresta,-9.8756,-56.0861,93.02,52,0,8.05,BR,1651329918
54,Tura,25.5198,90.2201,68.58,95,13,7.2,IN,1651329919
55,Kaitangata,-46.2817,169.8464,49.23,88,22,4.76,NZ,1651329919
56,Dongsheng,39.8161,109.9776,44.04,24,0,6.67,CN,1651329920
57,Geraldton,-28.7667,114.6,59.41,88,0,8.05,AU,1651329920
58,Tefé,-3.3542,-64.7114,82.51,83,75,3.44,BR,1651329921
59,Havelock,34.8791,-76.9013,67.98,80,100,3.44,US,1651329509
60,Penzance,50.1186,-5.5371,52.92,76,20,10.36,GB,1651329921
61,Hermanus,-34.4187,19.2345,64.8,74,52,7.52,ZA,1651329922
62,Kumul,42.8,93.45,64.67,14,1,2.86,CN,1651329922
63,Aras,42.5617,-2.356,66.61,43,0,10.36,ES,1651329655
64,Albany,42.6001,-73.9662,53.92,32,2,1.01,US,1651329778
65,Neiafu,-18.65,-173.9833,77.68,94,75,0.0,TO,1651329923
66,Iqaluit,63.7506,-68.5145,20.93,73,100,13.8,CA,1651329924
67,Olafsvik,64.8945,-23.7142,45.21,87,100,15.17,IS,1651329903
68,George Town,5.4112,100.3354,85.98,80,20,3.44,MY,1651329893
69,East London,-33.0153,27.9116,68.94,64,0,21.85,ZA,1651329925
70,Klaksvík,62.2266,-6.589,49.12,83,98,8.23,FO,1651329925
71,Isangel,-19.55,169.2667,77.4,88,100,15.12,VU,1651329926
72,Huarmey,-10.0681,-78.1522,71.58,75,87,7.63,PE,1651329926
73,Bethel,41.3712,-73.414,57.58,36,0,8.05,US,1651329927
74,Dayong,25.0209,118.2898,66.61,86,100,3.44,CN,1651329927
75,Lima,-12.0432,-77.0282,64.65,82,44,3.44,PE,1651329634
76,Sept-Îles,50.2001,-66.3821,44.06,62,75,14.97,CA,1651329928
77,Hasaki,35.7333,140.8333,45.0,54,47,11.54,JP,1651329928
78,Evans,33.5337,-82.1307,75.25,56,0,8.05,US,1651329929
79,Souillac,-20.5167,57.5167,77.38,78,40,8.05,MU,1651329730
80,Lamar,33.6668,-95.5836,73.31,83,100,12.66,US,1651329929
81,Krasnyy Chikoy,50.3643,108.7512,46.69,83,100,2.91,RU,1651329744
82,Buala,-8.145,159.5921,79.21,83,84,1.79,SB,1651329930
83,Chenghai,23.4632,116.768,73.31,78,75,6.71,CN,1651329931
84,Chipinge,-20.1883,32.6236,66.33,65,0,2.46,ZW,1651329931
85,Atuona,-9.8,-139.0333,77.95,77,54,13.58,PF,1651329801
86,Yellowknife,62.456,-114.3525,19.92,68,0,9.22,CA,1651329709
87,Tuatapere,-46.1333,167.6833,55.74,79,100,8.48,NZ,1651329932
88,Tuktoyaktuk,69.4541,-133.0374,21.2,86,20,9.22,CA,1651329789
89,Panzhihua,26.5851,101.7128,71.6,51,68,6.42,CN,1651329933
90,Mayo,38.8876,-76.5119,60.35,32,0,8.05,US,1651329933
91,Carnarvon,-24.8667,113.6333,71.67,64,17,10.36,AU,1651329933
92,Yerbogachën,61.2767,108.0108,37.76,94,100,4.83,RU,1651329907
93,Oberá,-27.4871,-55.1199,70.11,79,97,1.32,AR,1651329934
94,Grindavik,63.8424,-22.4338,45.07,81,100,11.5,IS,1651329883
95,Wamba,8.9333,8.6,99.05,28,92,7.25,NG,1651329935
96,Clyde River,70.4692,-68.5914,12.43,73,100,0.0,CA,1651329935
97,Luganville,-15.5333,167.1667,78.78,86,100,2.39,VU,1651329936
98,Ferme-Neuve,46.7001,-75.4493,48.07,43,7,7.7,CA,1651329936
99,Solec Kujawski,53.0837,18.2257,64.33,34,0,2.3,PL,1651329937
100,Domoni,-12.2569,44.5319,79.52,85,66,7.7,KM,1651329937
101,Iquique,-20.2208,-70.1431,62.64,66,22,5.82,CL,1651329938
102,Cabra,37.4725,-4.4421,74.77,25,16,7.29,ES,1651329939
103,Nome,64.5011,-165.4064,41.07,61,100,12.66,US,1651329939
104,Crestview,30.7621,-86.5705,75.38,79,100,6.91,US,1651329940
105,Nakhon Thai,17.1006,100.8374,78.76,78,95,3.47,TH,1651329940
106,Ambrolauri,42.5211,43.1622,64.87,83,75,3.38,GE,1651329941
107,Pevek,69.7008,170.3133,-5.71,100,96,0.98,RU,1651329941
108,Jimaní,18.4917,-71.8502,80.49,49,91,6.33,DO,1651329942
109,Kapit,2.0167,112.9333,75.99,99,100,1.23,MY,1651329942
110,Bluff,-46.6,168.3333,60.8,73,84,19.95,NZ,1651329943
111,Puerto Ayora,-0.7393,-90.3518,75.16,84,36,10.2,EC,1651329661
112,Sopetrán,6.6703,-75.7475,71.04,62,87,3.6,CO,1651329943
113,Saldanha,-33.0117,17.9442,68.05,75,40,12.35,ZA,1651329944
114,Fortuna,40.5982,-124.1573,53.98,93,100,3.0,US,1651329912
115,Atar,20.5169,-13.0499,97.2,7,0,5.75,MR,1651329944
116,Verkhnevilyuysk,63.4453,120.3167,38.1,89,100,11.23,RU,1651329945
117,Gelendzhik,44.5731,38.0747,61.38,79,100,11.9,RU,1651329945
118,Merauke,-8.4667,140.3333,79.92,86,49,14.27,ID,1651329946
119,Batangafo,7.3008,18.2833,99.09,25,81,5.03,CF,1651329947
120,Onega,63.9061,38.1404,34.18,65,45,5.21,RU,1651329947
121,Cabo San Lucas,22.8909,-109.9124,75.51,55,46,7.81,MX,1651329911
122,Nikolskoye,59.7035,30.7861,46.29,44,92,7.94,RU,1651329948
123,Severo-Kuril'sk,50.6789,156.125,33.96,82,92,16.98,RU,1651329948
124,New Norfolk,-42.7826,147.0587,56.91,58,100,9.98,AU,1651329949
125,Ancud,-41.8697,-73.8203,48.79,72,24,3.2,CL,1651329949
126,Şarkîkaraağaç,38.0794,31.3664,63.28,54,63,12.48,TR,1651329950
127,Maturin,9.75,-63.1767,89.06,50,100,8.81,VE,1651329950
128,Hithadhoo,-0.6,73.0833,85.77,69,71,16.17,MV,1651329951
129,Aklavik,68.2191,-135.0107,28.4,80,20,4.61,CA,1651329951
130,Egvekinot,66.3167,-179.1667,13.69,85,100,11.3,RU,1651329952
131,Talaya,61.3833,152.75,5.36,100,67,1.48,RU,1651329952
132,Provideniya,64.3833,-173.3,28.0,93,100,14.88,RU,1651329952
133,Chiang Rai,19.9167,99.9167,80.31,93,20,8.05,TH,1651329953
134,Ponta do Sol,32.6667,-17.1,72.23,49,0,0.96,PT,1651329818
135,Mehamn,71.0357,27.8492,29.44,59,83,17.52,NO,1651329954
136,Lavrentiya,65.5833,-171.0,23.45,89,100,10.18,RU,1651329954
137,Jodiya,22.6925,70.306,86.29,69,0,18.79,IN,1651329955
138,Ostrovnoy,68.0531,39.5131,27.54,71,84,12.66,RU,1651329955
139,Dzilam González,21.2833,-88.9333,85.46,55,0,7.92,MX,1651329956
140,Belmonte,-15.8631,-38.8828,80.73,68,19,5.44,BR,1651329956
141,Portland,45.5234,-122.6762,53.64,92,75,1.99,US,1651329957
142,Saskylakh,71.9167,114.0833,15.22,92,100,16.89,RU,1651329957
143,Coyhaique,-45.5752,-72.0662,43.41,87,75,3.44,CL,1651329958
144,Jamestown,42.097,-79.2353,57.94,30,0,5.75,US,1651329958
145,Sinnamary,5.3833,-52.95,83.14,67,83,12.28,GF,1651329959
146,Khanpur,28.6453,70.6567,102.99,7,0,8.21,PK,1651329959
147,Qaanaaq,77.484,-69.3632,18.18,77,100,8.55,GL,1651329960
148,Pokhara,28.2333,83.9833,70.54,71,100,2.35,NP,1651329887
149,Kautokeino,69.0125,23.0412,29.35,68,96,10.36,NO,1651329960
150,Port Keats,-14.25,129.55,78.93,84,6,4.85,AU,1651329961
151,Port Elizabeth,-33.918,25.5701,68.09,68,0,19.57,ZA,1651329961
152,Poum,-20.2333,164.0167,76.06,76,4,8.12,NC,1651329962
153,Lindi,-10.0,39.7167,78.53,79,10,3.53,TZ,1651329963
154,Vila Velha,-20.3297,-40.2925,84.15,69,40,8.05,BR,1651329963
155,Chokurdakh,70.6333,147.9167,6.96,96,33,7.05,RU,1651329964
156,La Ronge,55.1001,-105.2842,37.65,75,75,9.22,CA,1651329964
157,Hong Kong,22.2855,114.1577,77.97,87,100,15.99,HK,1651329862
158,Vostok,46.4856,135.8833,36.16,95,100,1.92,RU,1651329965
159,Codrington,-38.2667,141.9667,53.83,88,37,12.8,AU,1651329965
160,Esmeraldas,-19.7625,-44.3139,80.71,37,0,6.64,BR,1651329966
161,Lieksa,63.3167,30.0167,36.73,86,100,5.21,FI,1651329966
162,Blacksburg,37.2296,-80.4139,55.38,82,100,0.0,US,1651329967
163,Richards Bay,-28.783,32.0377,69.17,72,92,14.03,ZA,1651329967
164,Arraial do Cabo,-22.9661,-42.0278,76.96,78,75,8.05,BR,1651329917
165,Bonfim,3.0833,-59.95,88.57,51,100,6.02,BR,1651329968
166,Zhezkazgan,47.8043,67.7144,71.58,37,0,4.47,KZ,1651329968
167,Amnat Charoen,15.9167,104.75,78.57,78,99,4.54,TH,1651329919
168,Maple Creek,49.9168,-109.4848,48.61,65,0,1.14,CA,1651329969
169,Chui,-33.6971,-53.4616,61.36,54,56,3.38,UY,1651329970
170,Lázaro Cárdenas,17.9583,-102.2,79.99,54,1,2.73,MX,1651329970
171,Lompoc,34.6391,-120.4579,66.94,88,0,21.99,US,1651329971
172,Tasiilaq,65.6145,-37.6368,41.16,42,70,14.36,GL,1651329971
173,Nipawin,53.3668,-104.0009,41.04,81,75,8.05,CA,1651329972
174,Townsville,-19.25,146.8,74.28,73,100,6.91,AU,1651329972
175,São Félix do Xingu,-6.6447,-51.995,82.11,78,77,2.86,BR,1651329973
176,Husavik,66.0449,-17.3389,52.41,49,70,3.11,IS,1651329891
177,Brae,60.3964,-1.353,46.63,70,100,10.31,GB,1651329973
178,Taos,36.4072,-105.5731,50.56,24,0,0.0,US,1651329853
179,Castro,-24.7911,-50.0119,62.85,83,99,7.54,BR,1651329974
180,Mahébourg,-20.4081,57.7,77.29,78,40,8.05,MU,1651329975
181,Lüderitz,-26.6481,15.1594,67.46,52,0,25.28,NA,1651329975
182,Staroaleyskoye,51.0061,82.0,64.13,31,100,11.16,RU,1651329976
183,Chiredzi,-21.05,31.6667,80.28,37,0,2.04,ZW,1651329976
184,Esperance,-33.8667,121.9,57.04,78,0,8.05,AU,1651329977
185,Cape Town,-33.9258,18.4232,68.11,62,0,14.97,ZA,1651329745
186,Great Bend,38.3645,-98.7648,58.84,54,20,26.46,US,1651329977
187,Broken Hill,-31.95,141.4333,53.31,82,75,8.05,AU,1651329924
188,San Cristobal,7.7669,-72.225,78.98,78,100,7.09,VE,1651329881
189,Bahía Honda,22.9036,-83.1592,81.16,54,14,9.48,CU,1651329978
190,Humberto de Campos,-2.5983,-43.4611,83.75,77,81,5.5,BR,1651329979
191,Nador,35.174,-2.9287,69.87,64,20,5.75,MA,1651329955
192,Laguna,38.421,-121.4238,63.09,75,0,1.01,US,1651329979
193,Yar-Sale,66.8333,70.8333,18.77,86,66,8.25,RU,1651329980
194,Guerrero Negro,27.9769,-114.0611,61.05,75,55,11.81,MX,1651329980
195,Gornopravdinsk,60.05,69.9,34.3,61,75,1.99,RU,1651329981
196,At-Bashi,41.1702,75.8106,52.36,48,49,9.78,KG,1651329981
197,Acapulco de Juárez,16.8634,-99.8901,78.62,83,0,4.61,MX,1651329982
198,Fort Nelson,58.8053,-122.7002,27.99,80,20,4.61,CA,1651329740
199,Lagoa,39.05,-27.9833,61.16,85,3,12.8,PT,1651329983
200,Chicama,-7.8447,-79.1469,63.14,67,94,4.18,PE,1651329983
201,Riyadh,24.6877,46.7219,95.14,13,0,13.94,SA,1651329786
202,Pangody,65.85,74.4859,18.37,87,67,8.59,RU,1651329984
203,Lábrea,-7.2586,-64.7981,90.07,54,90,2.28,BR,1651329984
204,Liverpool,53.4106,-2.9779,61.38,60,20,8.05,GB,1651329949
205,Ust'-Barguzin,53.45,108.9833,35.38,97,100,0.67,RU,1651329985
206,Saint-Ambroise,48.5501,-71.3324,43.12,48,100,9.22,CA,1651329985
207,Mount Gambier,-37.8333,140.7667,53.51,94,40,12.66,AU,1651329986
208,Ask,60.0717,11.0345,54.66,37,0,8.05,NO,1651329986
209,Thanh Hoa,19.8,105.7667,76.24,89,60,4.12,VN,1651329987
210,Ixtapa,20.7,-105.2,83.08,12,73,3.27,MX,1651329689
211,Khovd,48.0056,91.6419,54.41,17,55,0.92,MN,1651329965
212,Bambous Virieux,-20.3428,57.7575,77.25,78,40,8.05,MU,1651329741
213,Mweka,-4.85,21.5667,82.99,61,86,2.51,CD,1651329988
214,Matara,5.9485,80.5353,81.7,85,36,9.4,LK,1651329988
215,Port Hardy,50.6996,-127.4199,48.38,76,75,14.97,CA,1651329786
216,Evinayong,1.4368,10.5512,78.03,78,96,4.03,GQ,1651329989
217,Buenos Aires,-34.6132,-58.3772,57.92,61,75,8.05,AR,1651329880
218,Chushan,33.2955,113.6528,53.19,53,100,6.35,CN,1651329989
219,Saint-Philippe,-21.3585,55.7679,80.19,79,45,11.18,RE,1651329784
220,Adrar,20.5022,-10.0711,94.37,7,0,7.11,MR,1651329990
221,Torbay,47.6666,-52.7314,44.76,95,100,10.36,CA,1651329803
222,Rockhampton,-23.3833,150.5,67.89,88,40,1.14,AU,1651329982
223,Altay,47.8667,88.1167,53.49,34,78,11.16,CN,1651329831
224,Mkushi,-13.6202,29.3939,70.92,65,21,3.67,ZM,1651329991
225,Arlit,18.7369,7.3853,104.22,5,100,9.15,NE,1651329992
226,Kochubey,44.3861,46.5825,63.46,65,1,7.92,RU,1651329992
227,Sambava,-14.2667,50.1667,77.92,83,6,11.81,MG,1651329993
228,Kasongo-Lunda,-6.4667,16.8167,79.05,84,100,0.85,CD,1651329993
229,County Wicklow,53.0,-6.4167,49.1,98,100,3.71,IE,1651329993
230,Galle,6.0367,80.217,82.9,81,35,9.84,LK,1651329994
231,Beidao,34.5686,105.8933,48.97,36,100,0.92,CN,1651329994
232,Taltal,-25.4,-70.4833,66.61,69,8,6.85,CL,1651329995
233,Cidreira,-30.1811,-50.2056,66.58,64,50,12.01,BR,1651329995
234,Port Moresby,-9.4431,147.1797,74.62,100,40,3.44,PG,1651329880
235,Bull Savanna,17.8868,-77.5902,79.83,63,4,5.14,JM,1651329996
236,Warrnambool,-38.3833,142.4833,55.81,84,8,15.93,AU,1651329997
237,Tiksi,71.6872,128.8694,33.85,82,86,19.64,RU,1651329997
238,Labuhan,-6.8844,112.2051,79.97,85,100,10.69,ID,1651329882
239,Laas,46.6166,10.7002,56.35,98,100,4.29,IT,1651329998
240,Caravelas,-17.7125,-39.2481,83.5,57,6,7.4,BR,1651329886
241,Kurumkan,54.3,110.3,41.32,93,74,2.44,RU,1651329998
242,Libenge,3.65,18.6333,88.75,47,98,2.75,CD,1651329999
243,Erenhot,43.6475,111.9767,50.94,25,77,14.45,CN,1651329999
244,Nanortalik,60.1432,-45.2371,39.07,84,83,4.03,GL,1651329857
245,Yuncheng,35.0231,110.9928,53.51,55,100,5.19,CN,1651330000
246,Mount Isa,-20.7333,139.5,74.97,57,2,6.91,AU,1651330000
247,Nicolás R Casillas,20.5333,-103.4667,73.22,11,10,0.51,MX,1651330001
248,Odenton,39.084,-76.7002,61.77,28,0,6.91,US,1651330001
249,Lorengau,-2.0226,147.2712,80.42,79,96,5.17,PG,1651330002
250,Constitución,-35.3333,-72.4167,58.15,44,0,6.17,CL,1651330002
251,Olavarría,-36.8927,-60.3225,51.89,43,83,7.74,AR,1651330003
252,Pestyaki,56.7103,42.6717,40.19,50,76,10.2,RU,1651330003
253,Sisimiut,66.9395,-53.6735,23.25,48,0,6.17,GL,1651330004
254,Chishtian,29.8,72.8667,100.18,10,4,8.5,PK,1651330004
255,Comodoro Rivadavia,-45.8667,-67.5,49.86,66,40,10.36,AR,1651329901
256,Upernavik,72.7868,-56.1549,19.02,82,100,15.66,GL,1651330005
257,Pangkalanbuun,-2.6833,111.6167,76.14,94,76,1.79,ID,1651330005
258,Darhan,49.4867,105.9228,53.67,44,69,2.91,MN,1651330006
259,Pozhva,59.0912,56.0847,37.78,66,100,6.53,RU,1651330006
260,Nelson Bay,-32.7167,152.15,63.0,93,42,10.29,AU,1651330007
261,Boundiali,9.5217,-6.4869,100.47,23,77,5.5,CI,1651330007
262,Nishihara,26.1842,127.7558,72.68,73,100,8.05,JP,1651329788
263,Dinghaicun,26.2847,119.7936,59.92,87,100,18.12,CN,1651330008
264,Ilhabela,-23.7781,-45.3581,71.46,85,100,4.88,BR,1651330008
265,Akureyri,65.6835,-18.0878,58.93,29,0,10.36,IS,1651330009
266,Saint Paul Harbor,57.79,-152.4072,40.51,87,100,31.07,US,1651330009
267,Alyangula,-13.8483,136.4192,75.07,94,73,3.44,AU,1651330010
268,Cherskiy,68.75,161.3,-6.14,100,79,4.18,RU,1651330010
269,Tomatlán,19.9333,-105.25,79.43,30,7,1.86,MX,1651329859
270,Noumea,-22.2763,166.4572,71.58,86,99,9.46,NC,1651329914
271,Narathiwat,6.3333,101.75,82.11,89,96,0.76,TH,1651330011
272,Quelimane,-17.8786,36.8883,80.55,61,40,4.61,MZ,1651329825
273,Harlingen,26.1906,-97.6961,80.89,89,75,13.8,US,1651330012
274,Taraz,42.9,71.3667,77.41,41,75,4.47,KZ,1651330012
275,Soyo,-6.1349,12.3689,82.96,70,97,6.06,AO,1651330013
276,Salalah,17.0151,54.0924,87.89,79,40,11.5,OM,1651330013
277,Westport,41.1415,-73.3579,58.89,30,0,16.11,US,1651329841
278,Port Lincoln,-34.7333,135.8667,59.13,77,2,7.76,AU,1651329937
279,Biak,-0.9131,122.8766,76.95,86,100,0.98,ID,1651330014
280,Worland,44.0169,-107.9554,44.67,83,0,3.44,US,1651330014
281,Saint-Pierre,-21.3393,55.4781,80.28,78,100,5.75,RE,1651330015
282,City of Saint Peters,38.8003,-90.6265,68.59,74,0,10.0,US,1651330015
283,Taganak,6.0833,118.3,75.34,73,92,5.82,PH,1651330016
284,Maltahöhe,-24.8333,16.9833,78.21,10,0,2.95,NA,1651330016
285,Mīnāb,27.1467,57.0801,89.92,40,23,13.8,IR,1651330017
286,San Ignacio,17.1561,-89.0714,80.74,78,0,0.0,BZ,1651330017
287,Ilulissat,69.2167,-51.1,21.22,53,20,10.36,GL,1651329854
288,Ambulu,-8.345,113.6058,76.75,91,94,3.29,ID,1651330018
289,Kangaba,11.9333,-8.4167,100.51,23,87,4.09,ML,1651330018
290,Bukachacha,52.9833,116.9167,37.42,37,99,1.28,RU,1651330019
291,Hurricane,37.1753,-113.2899,57.54,18,6,3.15,US,1651329846
292,Trogir,43.5125,16.2517,69.85,32,0,10.36,HR,1651330020
293,Srandakan,-7.9386,110.2506,78.4,88,100,4.52,ID,1651330020
294,Izhma,65.0083,53.9113,32.11,70,44,4.88,RU,1651330021
295,Safi,32.2994,-9.2372,67.82,67,100,16.2,MA,1651330021
296,Norman Wells,65.282,-126.8329,32.04,74,20,3.44,CA,1651330022
297,Yangi Marg`ilon,40.4272,71.7189,81.32,29,0,2.3,UZ,1651330022
298,Ormara,25.2088,64.6357,87.12,64,5,24.05,PK,1651330023
299,Kahului,20.8947,-156.47,73.42,80,0,16.11,US,1651330024
300,Padang,-0.9492,100.3543,80.65,86,100,2.35,ID,1651330024
301,Namatanai,-3.6667,152.4333,79.48,79,100,1.81,PG,1651330025
302,Kyshtovka,56.555,76.6271,48.43,51,100,12.37,RU,1651330025
303,Mayna,54.1135,47.6231,44.98,72,49,5.35,RU,1651330026
304,Fairbanks,64.8378,-147.7164,34.61,77,0,8.05,US,1651330026
305,Zagora,30.3484,-5.8365,78.8,18,53,4.36,MA,1651330027
306,Nchelenge,-9.3451,28.734,75.27,72,44,3.78,ZM,1651330027
307,São João da Barra,-21.6403,-41.0511,82.49,63,11,2.21,BR,1651330028
308,Bīkāpur,26.6,82.1333,98.87,9,10,4.88,IN,1651330028
309,Bayan,46.0833,127.4,41.88,76,99,7.09,CN,1651330029
310,Papara,-3.9839,-38.7273,85.69,66,35,8.01,BR,1651330030
311,Mossamedes,-15.1961,12.1522,77.4,73,8,9.98,AO,1651330031
312,Arrondissement de Millau,44.0833,2.9167,68.13,44,47,7.94,FR,1651330031
313,Port-Gentil,-0.7193,8.7815,85.96,66,20,8.05,GA,1651330032
314,Trincomalee,8.5711,81.2335,86.25,75,89,7.38,LK,1651330032
315,Benghazi,32.1167,20.0667,71.76,55,89,19.69,LY,1651330033
316,Biltine,14.5333,20.9167,107.37,5,100,7.96,TD,1651330033
317,Inhambane,-23.865,35.3833,80.58,69,20,11.99,MZ,1651330034
318,Lusambo,-4.9667,23.45,80.65,76,60,2.95,CD,1651330034
319,Kamień Pomorski,53.9685,14.7726,61.16,64,99,9.17,PL,1651330035
320,Ilo,-17.6394,-71.3375,67.06,73,75,6.91,PE,1651330035
321,Sørland,67.667,12.6934,37.2,56,67,3.89,NO,1651330036
322,Hwange,-18.3693,26.5019,82.69,27,0,4.63,ZW,1651330036
323,Shirokiy,49.758,129.523,42.66,77,100,10.89,RU,1651329902
324,Covington,39.0837,-84.5086,63.57,81,40,13.8,US,1651329807
325,Turtas,58.9417,69.1325,36.05,54,42,2.57,RU,1651330037
326,Rio Grande,-32.035,-52.0986,68.11,59,16,6.62,BR,1651330038
327,Bitung,1.4451,125.1824,79.65,85,99,2.62,ID,1651330038
328,São Benedito do Rio Preto,-3.3336,-43.5283,90.68,49,50,4.16,BR,1651330039
329,Sungai Padi,6.0851,101.8766,83.98,94,76,1.48,TH,1651330039
330,Kristiansund,63.1115,7.732,48.25,87,75,12.66,NO,1651330040
331,Vero Beach,27.6386,-80.3973,81.05,69,20,14.97,US,1651329992
332,Shirakamut,40.8606,44.1528,59.32,71,87,4.18,AM,1651330041
333,Henties Bay,-22.116,14.2845,61.99,73,0,12.93,NA,1651330041
334,Alice Springs,-23.7,133.8833,63.95,59,8,10.36,AU,1651329855
335,Belaya Gora,68.5333,146.4167,5.47,99,97,3.76,RU,1651330042
336,Meulaboh,4.1363,96.1285,81.14,79,100,0.69,ID,1651330042
337,Pisco,-13.7,-76.2167,68.02,77,54,4.61,PE,1651330043
338,Makkah al Mukarramah,21.4267,39.8261,91.56,41,5,13.87,SA,1651330043
339,Bonthe,7.5264,-12.505,85.64,65,96,10.2,SL,1651330044
340,Maniitsoq,65.4167,-52.9,23.41,53,14,10.85,GL,1651330044
341,Muros,42.7762,-9.0603,76.68,72,7,5.03,ES,1651329773
342,Dwārka,22.2394,68.9678,84.92,79,0,15.93,IN,1651330045
343,Russell,32.3502,-85.1999,74.97,73,0,5.75,US,1651330045
344,Rosetta,31.4044,30.4164,67.55,80,0,20.2,EG,1651330046
345,Coahuayana Viejo,18.7333,-103.6833,82.69,33,1,2.59,MX,1651329927
346,Kropotkin,45.4375,40.5756,56.61,86,100,12.26,RU,1651330047
347,Sabang,5.8933,95.3214,84.81,73,99,8.23,ID,1651330047
348,Manggar,-2.8833,108.2667,81.01,80,38,1.86,ID,1651330047
349,Turukhansk,65.8167,87.9833,15.28,90,28,2.71,RU,1651330048
350,Griffith,41.5284,-87.4237,61.27,67,100,20.71,US,1651330048
351,Øksfjord,70.2396,22.3479,32.07,80,100,14.79,NO,1651330049
352,Abay,49.6311,72.8539,70.18,32,4,6.6,KZ,1651330049
353,Ambilobe,-13.2,49.05,76.39,89,42,1.07,MG,1651330050
354,Utinga,-5.8172,-35.3954,88.2,66,75,14.97,BR,1651330050
355,Hofn,64.2539,-15.2082,47.53,75,10,11.59,IS,1651329934
356,Gizo Government Station,-8.103,156.8419,82.92,71,29,3.8,SB,1651330051
357,Phan Thiet,10.9333,108.1,79.36,85,99,4.76,VN,1651330052
358,Mae Hong Son,19.3003,97.9685,73.8,86,84,1.83,TH,1651330052
359,Sattahip,12.6664,100.9007,86.09,70,20,2.3,TH,1651330053
360,Arona,28.0996,-16.681,70.7,51,20,18.41,ES,1651330053
361,Brigantine,39.4101,-74.3646,62.2,31,0,9.22,US,1651330054
362,Pandan,14.0453,124.1694,79.65,86,77,7.07,PH,1651330054
363,Teculután,14.9833,-89.7167,80.35,65,100,0.0,GT,1651330054
364,Vila Franca do Campo,37.7167,-25.4333,66.61,70,2,8.34,PT,1651330055
365,Arima,10.6333,-61.2833,85.75,70,40,12.66,TT,1651329807
366,Bagdarin,54.4333,113.6,31.93,94,61,3.36,RU,1651330056
367,Pedro II,-4.4247,-41.4586,82.8,54,63,4.7,BR,1651330056
368,Muncie,40.1934,-85.3864,62.65,75,75,15.01,US,1651330057
369,Placer,39.0666,-120.7677,54.01,65,76,1.59,US,1651330057
370,Boali,4.8005,18.1275,93.22,37,59,3.49,CF,1651330058
371,Kutum,14.2,24.6667,95.95,6,15,16.24,SD,1651330058
372,Taksimo,56.3444,114.8794,37.65,98,100,2.98,RU,1651329840
373,Antalaha,-14.9003,50.2788,76.3,86,46,9.33,MG,1651330059
374,San Quintín,30.4833,-115.95,60.21,76,67,6.55,MX,1651330059
375,Touros,-5.1989,-35.4608,85.87,64,79,16.15,BR,1651330060
376,Suzun,53.7841,82.3116,62.71,39,12,5.99,RU,1651330060
377,Anadyr,64.75,177.4833,30.7,80,40,4.47,RU,1651329895
378,Chancay,-11.5714,-77.2672,69.73,77,85,6.15,PE,1651330061
379,Shumikha,55.2261,63.2961,47.35,43,100,9.08,RU,1651330061
380,Senador Canedo,-16.7081,-49.0931,81.73,44,0,8.05,BR,1651330062
381,San Jose,37.3394,-121.895,60.28,72,20,1.01,US,1651329926
382,Ürümqi,43.801,87.6005,70.75,14,0,22.37,CN,1651330062
383,Kaka,37.3482,59.6143,81.37,30,100,14.16,TM,1651330063
384,LaBelle,26.7617,-81.4384,80.67,72,69,15.61,US,1651329763
385,Faya,18.3851,42.4509,73.51,38,12,5.88,SA,1651330064
386,Butajīra,8.1167,38.3667,70.21,50,73,7.74,ET,1651330064
387,Pitimbu,-7.4706,-34.8086,86.59,66,72,12.48,BR,1651330064
388,Avera,33.194,-82.5271,73.38,56,87,7.36,US,1651330065
389,Narsaq,60.9167,-46.05,50.22,56,40,4.25,GL,1651329877
390,Bandarbeyla,9.4942,50.8122,84.99,72,11,10.33,SO,1651330066
391,Dikson,73.5069,80.5464,17.47,93,100,17.36,RU,1651330066
392,Lerwick,60.1545,-1.1494,44.6,72,100,12.5,GB,1651330067
393,Kathmandu,27.7167,85.3167,66.42,82,75,2.3,NP,1651329902
394,Faanui,-16.4833,-151.75,80.22,75,15,16.75,PF,1651330067
395,Katherine,-14.4667,132.2667,88.12,40,100,8.05,AU,1651329940
396,Naze,28.3667,129.4833,65.32,77,45,7.99,JP,1651330068
397,Linares,-35.85,-71.6,54.43,61,0,4.99,CL,1651329992
398,Madang,-5.2246,145.7966,76.68,90,84,3.29,PG,1651330069
399,Camacha,33.0833,-16.3333,65.62,68,40,13.8,PT,1651329888
400,Nueva Helvecia,-34.3,-57.2333,57.6,57,100,2.55,UY,1651330069
401,Los Llanos de Aridane,28.6585,-17.9182,68.13,76,0,13.8,ES,1651330070
402,High Level,58.5169,-117.136,32.11,80,100,6.91,CA,1651329923
403,Manokwari,-0.8667,134.0833,79.27,81,100,4.5,ID,1651330033
404,Preobrazheniye,42.9019,133.9064,38.07,96,100,4.05,RU,1651330071
405,Mossendjo,-2.9506,12.7261,73.18,89,100,2.82,CG,1651330071
406,Oga,46.4631,10.347,48.96,99,100,4.88,IT,1651330072
407,Jiwani,25.05,61.7417,88.27,61,1,23.24,PK,1651330072
408,Bathsheba,13.2167,-59.5167,84.81,74,40,16.11,BB,1651330073
409,Flinders,-34.5833,150.8552,58.28,71,25,1.99,AU,1651329828
410,Saint George,37.1041,-113.5841,59.43,25,0,8.05,US,1651329781
411,Calabozo,8.9242,-67.4293,78.78,80,100,4.81,VE,1651330074
412,Kuril'sk,45.2333,147.8833,32.34,84,98,15.9,RU,1651330074
413,Raška,43.2872,20.6153,64.04,55,54,3.67,RS,1651330075
414,Kanhangad,12.3081,75.1063,84.54,77,100,7.16,IN,1651330075
415,Moerai,-22.4333,-151.3333,78.58,71,81,15.55,PF,1651329810
416,Sonāri,27.0667,95.0333,72.97,76,100,2.59,IN,1651330076
417,Adelaide,-34.9333,138.6,62.08,74,40,8.05,AU,1651329937
418,Wanaka,-44.7,169.15,51.96,86,100,8.14,NZ,1651330077
419,Matagami,49.7502,-77.6328,42.91,31,0,3.44,CA,1651330054
420,Nemuro,43.3236,145.575,37.0,64,1,9.66,JP,1651330077
421,Namie,37.4833,141.0,48.72,73,100,9.15,JP,1651330078
422,Batagay,67.6333,134.6333,13.96,93,11,6.04,RU,1651330078
423,Manicoré,-5.8092,-61.3003,87.71,60,61,3.22,BR,1651330079
424,Natá,8.3333,-80.5167,84.07,64,99,0.56,PA,1651330079
425,Shaowu,27.3409,117.4831,59.22,98,100,3.87,CN,1651330080
426,Hamilton,39.1834,-84.5333,63.75,79,40,13.8,US,1651330081
427,Pauini,-7.7136,-66.9764,88.9,55,16,2.71,BR,1651330081
428,Ghanzi,-21.5667,21.7833,71.37,43,93,10.76,BW,1651330082
429,Antón Lizardo,19.05,-95.9833,82.22,71,92,5.23,MX,1651330082
430,Koumac,-20.5667,164.2833,73.24,83,24,4.83,NC,1651330083
431,Vilcún,-38.65,-72.2333,34.54,62,2,3.51,CL,1651330083
432,Haines Junction,60.7522,-137.5108,28.35,86,82,0.0,CA,1651329857
433,Eyl,7.9803,49.8164,85.24,71,60,11.72,SO,1651330084
434,Hohhot,40.8106,111.6522,48.49,17,0,2.24,CN,1651330084
435,Colombo,6.9319,79.8478,85.95,81,22,9.46,LK,1651330053
436,Ojinaga,29.5667,-104.4167,79.57,15,0,3.44,MX,1651329912
437,Dakar,14.6937,-17.4441,90.48,73,0,11.5,SN,1651330085
438,Boyabat,41.4689,34.7667,63.79,61,100,11.79,TR,1651330086
439,Derzhavīnsk,51.1,66.3167,70.43,34,98,5.32,KZ,1651330086
440,Waipawa,-41.4122,175.5153,44.76,87,0,6.02,NZ,1651330087
441,Pumiao,22.75,108.4833,68.4,84,100,13.58,CN,1651330087
442,Bosaso,11.2842,49.1816,85.98,89,0,12.66,SO,1651330088
443,Akriní,40.4333,21.9,62.22,48,99,5.75,GR,1651330089
444,Coquimbo,-29.9533,-71.3436,60.53,77,40,4.61,CL,1651330089
445,Conde,-7.2597,-34.9075,85.46,66,75,13.8,BR,1651330090
446,Kovūr,14.4833,79.9833,84.67,74,0,15.12,IN,1651330090
447,Tezu,27.9167,96.1667,72.93,71,100,3.09,IN,1651330091
448,Cravo Norte,6.3017,-70.2041,73.89,93,100,7.27,CO,1651330091
449,Banda Aceh,5.5577,95.3222,82.42,79,100,6.35,ID,1651330091
450,Kamenka,51.3223,42.7678,53.94,45,98,7.36,RU,1651330092
451,Sovetskiy,61.3614,63.5842,36.95,60,29,6.62,RU,1651330092
452,Sitka,57.0531,-135.33,37.29,81,0,3.44,US,1651330093
453,Ciudad Bolivar,8.1222,-63.5497,90.88,42,100,11.39,VE,1651330093
454,Manacapuru,-3.2997,-60.6206,78.62,81,100,4.23,BR,1651330094
455,Leningradskiy,69.3833,178.4167,3.58,98,96,5.99,RU,1651329841
456,Rantauprapat,2.1,99.8333,75.67,97,93,2.57,ID,1651330095
457,Vieques,18.425,-65.8329,76.08,94,100,5.75,PR,1651330095
458,Watrous,51.6668,-105.4679,46.18,71,100,11.5,CA,1651330096
459,Tromsø,69.6496,18.957,37.38,80,75,9.22,NO,1651330096
460,Sur,22.5667,59.5289,90.5,50,67,14.34,OM,1651330097
461,Qaqortoq,60.7167,-46.0333,43.66,69,50,6.71,GL,1651330097
462,Pampa,35.5362,-100.9599,59.04,38,0,21.85,US,1651330098
463,Bay Roberts,47.5999,-53.2648,43.52,86,100,5.99,CA,1651330098
464,Aksu,41.1231,80.2644,68.0,23,99,5.41,CN,1651330100
465,Concepción,-36.827,-73.0498,48.0,71,0,5.75,CL,1651330100
466,Katsuura,35.1333,140.3,52.95,66,41,8.66,JP,1651330101
467,Moranbah,-22.0016,148.0466,68.76,82,53,6.91,AU,1651330101
468,Aiquile,-18.2041,-65.1807,66.96,56,61,5.08,BO,1651330102
469,Grand Gaube,-20.0064,57.6608,77.4,74,33,1.99,MU,1651329814
470,Yarmouth,41.7057,-70.2286,52.97,64,40,21.0,US,1651330102
471,Sechura,-5.5569,-80.8222,73.62,65,99,11.34,PE,1651330103
472,Philadelphia,39.9523,-75.1638,60.62,24,20,10.36,US,1651329971
473,Nouadhibou,20.931,-17.0347,75.18,53,100,14.97,MR,1651330104
474,Karakol,42.4907,78.3936,53.15,46,72,6.46,KG,1651330104
475,Rio Claro,-22.4114,-47.5614,85.39,56,58,7.09,BR,1651330105
476,Cayenne,4.9333,-52.3333,86.04,7,75,11.5,GF,1651330105
477,Korla,41.7597,86.1469,64.63,24,0,6.78,CN,1651330106
478,Selikhino,50.3672,137.4996,30.61,85,15,4.7,RU,1651330106
479,Balingasay,16.3573,119.8564,83.41,75,91,3.8,PH,1651330107
480,Omsukchan,62.5333,155.8,13.42,98,100,3.09,RU,1651330107
481,Sāveh,35.0213,50.3566,77.45,28,64,5.26,IR,1651330108
482,Eskişehir,39.7767,30.5206,57.07,83,75,13.8,TR,1651330108
483,Praia,14.9215,-23.5087,79.34,50,20,18.41,CV,1651330109
484,Oistins,13.0667,-59.5333,84.29,74,40,16.11,BB,1651330109
485,Mana,5.6592,-53.7767,83.68,63,43,12.33,GF,1651330110
486,Davila,18.4726,120.5763,83.19,80,86,4.76,PH,1651330110
487,Chico,39.7285,-121.8375,61.05,50,20,5.75,US,1651329961
488,Evensk,61.95,159.2333,30.16,72,28,9.26,RU,1651329832
489,Nyköping,58.753,17.0079,52.09,54,75,8.05,SE,1651330111
490,Ust'-Ishim,57.6935,71.1665,39.18,50,73,4.63,RU,1651330112
491,Bairiki Village,1.3292,172.9752,80.6,83,75,3.44,KI,1651330112
492,Port-Cartier,50.0334,-66.8654,43.75,85,99,10.8,CA,1651330113
493,Tarakan,3.3,117.6333,81.64,79,93,4.5,ID,1651330113
494,Swellendam,-34.0226,20.4417,70.23,34,23,4.61,ZA,1651330114
495,Acarí,-15.4311,-74.6158,76.05,62,68,6.71,PE,1651330114
496,Ryōtsu-minato,38.0833,138.4333,49.19,69,100,2.66,JP,1651330115
497,Opuwo,-18.0607,13.84,81.45,32,64,3.96,NA,1651330115
498,Krasnosel'kup,65.7,82.4667,17.24,87,60,10.51,RU,1651330115
499,Kiryat Gat,31.61,34.7642,72.81,100,0,16.71,IL,1651330116
500,Camaná,-16.6228,-72.7111,70.5,69,72,9.13,PE,1651330116
501,Chabahar,25.2919,60.643,88.54,60,27,14.76,IR,1651330117
502,Sint-Lievens-Houtem,50.9329,3.8809,56.68,55,93,10.45,BE,1651330117
503,Nouakchott,18.0858,-15.9785,91.33,40,4,14.85,MR,1651330118
504,Nizhniy Kuranakh,58.8353,125.4869,25.34,85,11,3.78,RU,1651330119
505,Talnakh,69.4865,88.3972,20.21,95,90,6.89,RU,1651330119
506,Vardø,70.3705,31.1107,30.02,64,100,16.58,NO,1651330120
507,Nurota,40.5614,65.6886,77.81,26,72,7.85,UZ,1651330120
508,Point Pedro,9.8167,80.2333,84.92,80,60,16.31,LK,1651330120
509,Berezovyy,51.6667,135.7,26.47,95,99,3.42,RU,1651330121
510,Santa Isabel,-23.3156,-46.2214,69.51,96,100,5.66,BR,1651330121
511,Yulara,-25.2406,130.9889,64.24,59,100,10.36,AU,1651330122
512,Alpena,45.0617,-83.4327,53.85,56,0,11.5,US,1651330122
513,Kungurtug,50.5994,97.5228,43.75,60,100,2.48,RU,1651330123
514,Batticaloa,7.7102,81.6924,83.98,78,68,10.98,LK,1651330123
515,Brawley,32.9787,-115.5303,76.6,36,0,3.44,US,1651330124
516,Alofi,-19.0595,-169.9187,76.89,94,98,3.44,NU,1651330124
517,Teya,60.3778,92.6267,35.2,99,100,2.37,RU,1651330125
518,Dingle,10.9995,122.6711,78.19,82,93,5.82,PH,1651330125
519,Morshansk,53.4435,41.8107,47.26,48,85,10.49,RU,1651330126
520,Severodvinsk,64.5635,39.8302,35.71,80,98,4.68,RU,1651330126
521,Konstantinovsk,47.5828,41.0922,59.27,62,100,8.7,RU,1651330127
522,Vágur,61.4732,-6.8119,45.23,90,100,12.01,FO,1651330127
523,Jalu,29.0331,21.5482,91.0,13,2,5.32,LY,1651330128
524,Ust-Tsilma,65.441,52.1498,32.0,72,100,7.61,RU,1651330128
525,Kunya,12.2233,8.5325,103.5,14,84,2.93,NG,1651330129
526,Kavaratti,10.5669,72.642,85.93,72,99,11.23,IN,1651329936
527,Tual,-5.6667,132.75,84.87,73,14,13.94,ID,1651330130
528,Mokhotlong,-29.2894,29.0675,53.08,49,5,7.29,LS,1651330130
529,Bo Rai,12.5728,102.5371,77.68,91,28,1.59,TH,1651330130
530,Kavieng,-2.5744,150.7967,82.02,73,97,1.72,PG,1651330131
531,Santa Maria,-29.6842,-53.8069,61.9,72,75,11.5,BR,1651330131
532,Longyearbyen,78.2186,15.6401,15.64,57,0,3.44,SJ,1651330132
533,‘Āhuimanu,21.4447,-157.8378,74.91,77,75,13.8,US,1651329931
534,Samarai,-10.6167,150.6667,80.8,79,47,5.73,PG,1651330133
535,Alugan,12.2188,125.4808,80.44,84,99,8.32,PH,1651330133
536,Waingapu,-9.6567,120.2641,78.66,85,100,6.13,ID,1651330133
537,Zabul Province,32.25,67.25,77.43,12,0,13.58,AF,1651330134
538,Yūbari,43.0378,141.9578,41.94,78,100,2.48,JP,1651330135
539,Beringovskiy,63.05,179.3167,24.89,96,100,13.44,RU,1651329990
540,Pemba,-12.974,40.5178,83.1,65,20,10.36,MZ,1651330135
541,Arrondissement de Saint-Gaudens,43.0833,0.6667,66.02,69,82,6.76,FR,1651330136
542,Redlands,34.0556,-117.1825,77.94,50,0,0.0,US,1651330136
543,Vaitape,-16.5167,-151.75,80.19,75,16,16.82,PF,1651330137
544,Half Moon Bay,37.4636,-122.4286,57.06,84,75,14.97,US,1651329921
545,Hailey,43.5196,-114.3153,40.8,63,0,5.99,US,1651330137
546,Baruun-Urt,46.6806,113.2792,46.15,68,96,16.42,MN,1651330138
547,Weinan,34.5036,109.5089,55.83,26,100,3.89,CN,1651330138
548,Cochrane,51.1834,-114.4687,38.39,80,100,3.44,CA,1651330139
549,Bonga,7.2833,36.2333,64.87,98,91,0.74,ET,1651330139
550,Knysna,-34.0363,23.0471,63.39,70,1,7.31,ZA,1651330140
551,Viedma,-40.8135,-62.9967,54.46,34,100,16.96,AR,1651330140
552,Kimbe,-5.5502,150.1429,75.36,93,98,2.91,PG,1651330141
553,Birao,10.2849,22.7882,103.39,14,100,4.47,CF,1651330141
554,Río Gallegos,-51.6226,-69.2181,33.85,64,0,3.44,AR,1651329909
555,Salym,60.0625,71.4789,34.41,63,80,2.06,RU,1651330142
556,Cuajinicuilapa,16.4667,-98.4167,87.84,45,9,1.54,MX,1651330143
557,Tilichiki,60.4667,166.1,18.9,95,39,8.25,RU,1651330144
558,Eirunepé,-6.6603,-69.8736,85.75,63,94,1.36,BR,1651330144
559,Axum,14.1245,38.7244,80.11,23,24,14.27,ET,1651330145
560,Emet,39.343,29.2585,57.54,71,99,10.36,TR,1651330145
561,Vitim,59.4511,112.5578,38.03,99,100,4.76,RU,1651330146
562,Flin Flon,54.7682,-101.865,40.84,75,75,4.61,CA,1651329871
563,Krasnoarmeyskoye,52.7182,50.0322,55.17,53,73,6.2,RU,1651330146
564,Rurrenabaque,-14.4413,-67.5278,81.23,65,85,3.67,BO,1651330147
565,Vestmannaeyjar,63.4427,-20.2734,47.39,76,100,16.11,IS,1651329903
566,Sapele,5.8941,5.6767,83.88,72,90,9.1,NG,1651330148
